{
  "type": "FeatureCollection",
  "features": [
    {
      "type": "Feature",
      "id": "SER_1526680",
      "geometry": {
        "type": "Point",
        "coordinates": [
          0.941111,
          47.340556
        ]
      },
      "properties": {
        "id": "SER_1526680",
        "unit_name": "LFEF AMBOISE",
        "type": "OTHER",
        "sequence": 10,
        "latitude": 47.340556,
        "longitude": 0.941111,
        "source": "SIA",
        "airac": "2026-05-14",
        "sia_uid": "1526680"
      }
    },
    {
      "type": "Feature",
      "id": "SER_1526682",
      "geometry": {
        "type": "Point",
        "coordinates": [
          6.036667,
          44.453889
        ]
      },
      "properties": {
        "id": "SER_1526682",
        "unit_name": "LFNA GAP",
        "type": "ATIS",
        "sequence": 10,
        "latitude": 44.453889,
        "longitude": 6.036667,
        "source": "SIA",
        "airac": "2026-05-14",
        "sia_uid": "1526682"
      }
    },
    {
      "type": "Feature",
      "id": "SER_1526686",
      "geometry": {
        "type": "Point",
        "coordinates": [
          2.290592,
          43.554961
        ]
      },
      "properties": {
        "id": "SER_1526686",
        "unit_name": "LFCK CASTRES",
        "type": "AFIS",
        "sequence": 10,
        "latitude": 43.554961,
        "longitude": 2.290592,
        "source": "SIA",
        "airac": "2026-05-14",
        "sia_uid": "1526686"
      }
    },
    {
      "type": "Feature",
      "id": "SER_1526692",
      "geometry": {
        "type": "Point",
        "coordinates": [
          2.308544,
          43.215817
        ]
      },
      "properties": {
        "id": "SER_1526692",
        "unit_name": "LFMK CARCASSONNE",
        "type": "ATIS",
        "sequence": 10,
        "latitude": 43.215817,
        "longitude": 2.308544,
        "source": "SIA",
        "airac": "2026-05-14",
        "sia_uid": "1526692"
      }
    },
    {
      "type": "Feature",
      "id": "SER_1526694",
      "geometry": {
        "type": "Point",
        "coordinates": [
          1.183936,
          49.390953
        ]
      },
      "properties": {
        "id": "SER_1526694",
        "unit_name": "LFOP ROUEN",
        "type": "TWR",
        "sequence": 10,
        "latitude": 49.390953,
        "longitude": 1.183936,
        "source": "SIA",
        "airac": "2026-05-14",
        "sia_uid": "1526694"
      }
    },
    {
      "type": "Feature",
      "id": "SER_1526704",
      "geometry": {
        "type": "Point",
        "coordinates": [
          -61.2625,
          16.257778
        ]
      },
      "properties": {
        "id": "SER_1526704",
        "unit_name": "TFFC SAINT FRANCOIS",
        "type": "OTHER",
        "sequence": 10,
        "latitude": 16.257778,
        "longitude": -61.2625,
        "source": "SIA",
        "airac": "2026-05-14",
        "sia_uid": "1526704"
      }
    },
    {
      "type": "Feature",
      "id": "SER_1526706",
      "geometry": {
        "type": "Point",
        "coordinates": [
          -1.065,
          44.755
        ]
      },
      "properties": {
        "id": "SER_1526706",
        "unit_name": "LFCD ANDERNOS",
        "type": "OTHER",
        "sequence": 10,
        "latitude": 44.755,
        "longitude": -1.065,
        "source": "SIA",
        "airac": "2026-05-14",
        "sia_uid": "1526706"
      }
    },
    {
      "type": "Feature",
      "id": "SER_1526708",
      "geometry": {
        "type": "Point",
        "coordinates": [
          -146.620278,
          -15.246389
        ]
      },
      "properties": {
        "id": "SER_1526708",
        "unit_name": "NTGU ARUTUA",
        "type": "AFIS",
        "sequence": 10,
        "latitude": -15.246389,
        "longitude": -146.620278,
        "source": "SIA",
        "airac": "2026-05-14",
        "sia_uid": "1526708"
      }
    },
    {
      "type": "Feature",
      "id": "SER_1526712",
      "geometry": {
        "type": "Point",
        "coordinates": [
          6.268333,
          46.191944
        ]
      },
      "properties": {
        "id": "SER_1526712",
        "unit_name": "LFLI ANNEMASSE",
        "type": "OTHER",
        "sequence": 10,
        "latitude": 46.191944,
        "longitude": 6.268333,
        "source": "SIA",
        "airac": "2026-05-14",
        "sia_uid": "1526712"
      }
    },
    {
      "type": "Feature",
      "id": "SER_1526714",
      "geometry": {
        "type": "Point",
        "coordinates": [
          6.954167,
          43.546389
        ]
      },
      "properties": {
        "id": "SER_1526714",
        "unit_name": "LFMD CANNES",
        "type": "VDF",
        "sequence": 10,
        "latitude": 43.546389,
        "longitude": 6.954167,
        "source": "SIA",
        "airac": "2026-05-14",
        "sia_uid": "1526714"
      }
    },
    {
      "type": "Feature",
      "id": "SER_1526724",
      "geometry": {
        "type": "Point",
        "coordinates": [
          4.754444,
          43.996111
        ]
      },
      "properties": {
        "id": "SER_1526724",
        "unit_name": "LFNT PUJAUT",
        "type": "OTHER",
        "sequence": 10,
        "latitude": 43.996111,
        "longitude": 4.754444,
        "source": "SIA",
        "airac": "2026-05-14",
        "sia_uid": "1526724"
      }
    },
    {
      "type": "Feature",
      "id": "SER_1526728",
      "geometry": {
        "type": "Point",
        "coordinates": [
          2.073333,
          48.810278
        ]
      },
      "properties": {
        "id": "SER_1526728",
        "unit_name": "LFPZ SAINT CYR",
        "type": "ATIS",
        "sequence": 10,
        "latitude": 48.810278,
        "longitude": 2.073333,
        "source": "SIA",
        "airac": "2026-05-14",
        "sia_uid": "1526728"
      }
    },
    {
      "type": "Feature",
      "id": "SER_1526730",
      "geometry": {
        "type": "Point",
        "coordinates": [
          1.183936,
          49.390953
        ]
      },
      "properties": {
        "id": "SER_1526730",
        "unit_name": "LFOP ROUEN",
        "type": "ATIS",
        "sequence": 10,
        "latitude": 49.390953,
        "longitude": 1.183936,
        "source": "SIA",
        "airac": "2026-05-14",
        "sia_uid": "1526730"
      }
    },
    {
      "type": "Feature",
      "id": "SER_1526740",
      "geometry": {
        "type": "Point",
        "coordinates": [
          6.954167,
          43.546389
        ]
      },
      "properties": {
        "id": "SER_1526740",
        "unit_name": "LFMD CANNES",
        "type": "TWR",
        "sequence": 10,
        "latitude": 43.546389,
        "longitude": 6.954167,
        "source": "SIA",
        "airac": "2026-05-14",
        "sia_uid": "1526740"
      }
    },
    {
      "type": "Feature",
      "id": "SER_1526742",
      "geometry": {
        "type": "Point",
        "coordinates": [
          6.954167,
          43.546389
        ]
      },
      "properties": {
        "id": "SER_1526742",
        "unit_name": "LFMD CANNES",
        "type": "TWR",
        "sequence": 20,
        "latitude": 43.546389,
        "longitude": 6.954167,
        "source": "SIA",
        "airac": "2026-05-14",
        "sia_uid": "1526742"
      }
    },
    {
      "type": "Feature",
      "id": "SER_1526744",
      "geometry": {
        "type": "Point",
        "coordinates": [
          -0.982394,
          45.889528
        ]
      },
      "properties": {
        "id": "SER_1526744",
        "unit_name": "LFDN ROCHEFORT",
        "type": "AFIS",
        "sequence": 10,
        "latitude": 45.889528,
        "longitude": -0.982394,
        "source": "SIA",
        "airac": "2026-05-14",
        "sia_uid": "1526744"
      }
    },
    {
      "type": "Feature",
      "id": "SER_1526746",
      "geometry": {
        "type": "Point",
        "coordinates": [
          -146.415,
          -15.573611
        ]
      },
      "properties": {
        "id": "SER_1526746",
        "unit_name": "NTGD APATAKI",
        "type": "OTHER",
        "sequence": 10,
        "latitude": -15.573611,
        "longitude": -146.415,
        "source": "SIA",
        "airac": "2026-05-14",
        "sia_uid": "1526746"
      }
    },
    {
      "type": "Feature",
      "id": "SER_1526748",
      "geometry": {
        "type": "Point",
        "coordinates": [
          -149.611389,
          -17.556667
        ]
      },
      "properties": {
        "id": "SER_1526748",
        "unit_name": "NTAA TAHITI",
        "type": "TWR",
        "sequence": 20,
        "latitude": -17.556667,
        "longitude": -149.611389,
        "source": "SIA",
        "airac": "2026-05-14",
        "sia_uid": "1526748"
      }
    },
    {
      "type": "Feature",
      "id": "SER_1526752",
      "geometry": {
        "type": "Point",
        "coordinates": [
          -0.742781,
          48.03225
        ]
      },
      "properties": {
        "id": "SER_1526752",
        "unit_name": "LFOV LAVAL",
        "type": "AFIS",
        "sequence": 10,
        "latitude": 48.03225,
        "longitude": -0.742781,
        "source": "SIA",
        "airac": "2026-05-14",
        "sia_uid": "1526752"
      }
    },
    {
      "type": "Feature",
      "id": "SER_1526754",
      "geometry": {
        "type": "Point",
        "coordinates": [
          -2.07995,
          48.587706
        ]
      },
      "properties": {
        "id": "SER_1526754",
        "unit_name": "LFRD DINARD",
        "type": "ATIS",
        "sequence": 10,
        "latitude": 48.587706,
        "longitude": -2.07995,
        "source": "SIA",
        "airac": "2026-05-14",
        "sia_uid": "1526754"
      }
    },
    {
      "type": "Feature",
      "id": "SER_1526758",
      "geometry": {
        "type": "Point",
        "coordinates": [
          3.999722,
          46.052778
        ]
      },
      "properties": {
        "id": "SER_1526758",
        "unit_name": "LFLO ROANNE",
        "type": "AFIS",
        "sequence": 10,
        "latitude": 46.052778,
        "longitude": 3.999722,
        "source": "SIA",
        "airac": "2026-05-14",
        "sia_uid": "1526758"
      }
    },
    {
      "type": "Feature",
      "id": "SER_1526760",
      "geometry": {
        "type": "Point",
        "coordinates": [
          7.214983,
          43.665406
        ]
      },
      "properties": {
        "id": "SER_1526760",
        "unit_name": "LFMN NICE",
        "type": "TWR",
        "sequence": 10,
        "latitude": 43.665406,
        "longitude": 7.214983,
        "source": "SIA",
        "airac": "2026-05-14",
        "sia_uid": "1526760"
      }
    },
    {
      "type": "Feature",
      "id": "SER_1526762",
      "geometry": {
        "type": "Point",
        "coordinates": [
          -1.178889,
          47.407222
        ]
      },
      "properties": {
        "id": "SER_1526762",
        "unit_name": "LFFI ANCENIS",
        "type": "OTHER",
        "sequence": 10,
        "latitude": 47.407222,
        "longitude": -1.178889,
        "source": "SIA",
        "airac": "2026-05-14",
        "sia_uid": "1526762"
      }
    },
    {
      "type": "Feature",
      "id": "SER_1526768",
      "geometry": {
        "type": "Point",
        "coordinates": [
          -54.381111,
          4.283333
        ]
      },
      "properties": {
        "id": "SER_1526768",
        "unit_name": "SOGS GRAND SANTI",
        "type": "OTHER",
        "sequence": 10,
        "latitude": 4.283333,
        "longitude": -54.381111,
        "source": "SIA",
        "airac": "2026-05-14",
        "sia_uid": "1526768"
      }
    },
    {
      "type": "Feature",
      "id": "SER_1526770",
      "geometry": {
        "type": "Point",
        "coordinates": [
          5.291794,
          46.205619
        ]
      },
      "properties": {
        "id": "SER_1526770",
        "unit_name": "LFHS BOURG",
        "type": "OTHER",
        "sequence": 10,
        "latitude": 46.205619,
        "longitude": 5.291794,
        "source": "SIA",
        "airac": "2026-05-14",
        "sia_uid": "1526770"
      }
    },
    {
      "type": "Feature",
      "id": "SER_1526772",
      "geometry": {
        "type": "Point",
        "coordinates": [
          2.483314,
          44.407489
        ]
      },
      "properties": {
        "id": "SER_1526772",
        "unit_name": "LFCR RODEZ",
        "type": "VDF",
        "sequence": 10,
        "latitude": 44.407489,
        "longitude": 2.483314,
        "source": "SIA",
        "airac": "2026-05-14",
        "sia_uid": "1526772"
      }
    },
    {
      "type": "Feature",
      "id": "SER_1526774",
      "geometry": {
        "type": "Point",
        "coordinates": [
          -149.611389,
          -17.556667
        ]
      },
      "properties": {
        "id": "SER_1526774",
        "unit_name": "NTAA TAHITI",
        "type": "APP",
        "sequence": 10,
        "latitude": -17.556667,
        "longitude": -149.611389,
        "source": "SIA",
        "airac": "2026-05-14",
        "sia_uid": "1526774"
      }
    },
    {
      "type": "Feature",
      "id": "SER_1526780",
      "geometry": {
        "type": "Point",
        "coordinates": [
          2.483314,
          44.407489
        ]
      },
      "properties": {
        "id": "SER_1526780",
        "unit_name": "LFCR RODEZ",
        "type": "TWR",
        "sequence": 10,
        "latitude": 44.407489,
        "longitude": 2.483314,
        "source": "SIA",
        "airac": "2026-05-14",
        "sia_uid": "1526780"
      }
    },
    {
      "type": "Feature",
      "id": "SER_1526782",
      "geometry": {
        "type": "Point",
        "coordinates": [
          -149.611389,
          -17.556667
        ]
      },
      "properties": {
        "id": "SER_1526782",
        "unit_name": "NTAA TAHITI",
        "type": "ATIS",
        "sequence": 10,
        "latitude": -17.556667,
        "longitude": -149.611389,
        "source": "SIA",
        "airac": "2026-05-14",
        "sia_uid": "1526782"
      }
    },
    {
      "type": "Feature",
      "id": "SER_1525328",
      "geometry": {
        "type": "Point",
        "coordinates": [
          4.894444,
          43.770833
        ]
      },
      "properties": {
        "id": "SER_1525328",
        "unit_name": "LFNZ LE MAZET",
        "type": "OTHER",
        "sequence": 10,
        "latitude": 43.770833,
        "longitude": 4.894444,
        "source": "SIA",
        "airac": "2026-05-14",
        "sia_uid": "1525328"
      }
    },
    {
      "type": "Feature",
      "id": "SER_1525332",
      "geometry": {
        "type": "Point",
        "coordinates": [
          3.421606,
          46.534383
        ]
      },
      "properties": {
        "id": "SER_1525332",
        "unit_name": "LFHY MOULINS",
        "type": "AFIS",
        "sequence": 10,
        "latitude": 46.534383,
        "longitude": 3.421606,
        "source": "SIA",
        "airac": "2026-05-14",
        "sia_uid": "1525332"
      }
    },
    {
      "type": "Feature",
      "id": "SER_1525334",
      "geometry": {
        "type": "Point",
        "coordinates": [
          2.379578,
          48.723281
        ]
      },
      "properties": {
        "id": "SER_1525334",
        "unit_name": "LFPO ORLY",
        "type": "APP",
        "sequence": 10,
        "latitude": 48.723281,
        "longitude": 2.379578,
        "source": "SIA",
        "airac": "2026-05-14",
        "sia_uid": "1525334"
      }
    },
    {
      "type": "Feature",
      "id": "SER_1525338",
      "geometry": {
        "type": "Point",
        "coordinates": [
          -1.732233,
          48.071933
        ]
      },
      "properties": {
        "id": "SER_1525338",
        "unit_name": "LFRN RENNES",
        "type": "APP",
        "sequence": 10,
        "latitude": 48.071933,
        "longitude": -1.732233,
        "source": "SIA",
        "airac": "2026-05-14",
        "sia_uid": "1525338"
      }
    },
    {
      "type": "Feature",
      "id": "SER_1525340",
      "geometry": {
        "type": "Point",
        "coordinates": [
          -1.732233,
          48.071933
        ]
      },
      "properties": {
        "id": "SER_1525340",
        "unit_name": "LFRN RENNES",
        "type": "TWR",
        "sequence": 10,
        "latitude": 48.071933,
        "longitude": -1.732233,
        "source": "SIA",
        "airac": "2026-05-14",
        "sia_uid": "1525340"
      }
    },
    {
      "type": "Feature",
      "id": "SER_1525342",
      "geometry": {
        "type": "Point",
        "coordinates": [
          6.365,
          47.787222
        ]
      },
      "properties": {
        "id": "SER_1525342",
        "unit_name": "LFSX LUXEUIL",
        "type": "APP",
        "sequence": 10,
        "latitude": 47.787222,
        "longitude": 6.365,
        "source": "SIA",
        "airac": "2026-05-14",
        "sia_uid": "1525342"
      }
    },
    {
      "type": "Feature",
      "id": "SER_1525346",
      "geometry": {
        "type": "Point",
        "coordinates": [
          166.216111,
          -22.016389
        ]
      },
      "properties": {
        "id": "SER_1525346",
        "unit_name": "NWWW TONTOUTA",
        "type": "VDF",
        "sequence": 10,
        "latitude": -22.016389,
        "longitude": 166.216111,
        "source": "SIA",
        "airac": "2026-05-14",
        "sia_uid": "1525346"
      }
    },
    {
      "type": "Feature",
      "id": "SER_1525350",
      "geometry": {
        "type": "Point",
        "coordinates": [
          0.159997,
          49.363394
        ]
      },
      "properties": {
        "id": "SER_1525350",
        "unit_name": "LFRG DEAUVILLE",
        "type": "ATIS",
        "sequence": 10,
        "latitude": 49.363394,
        "longitude": 0.159997,
        "source": "SIA",
        "airac": "2026-05-14",
        "sia_uid": "1525350"
      }
    },
    {
      "type": "Feature",
      "id": "SER_1525352",
      "geometry": {
        "type": "Point",
        "coordinates": [
          -1.195236,
          46.179211
        ]
      },
      "properties": {
        "id": "SER_1525352",
        "unit_name": "LFBH LA ROCHELLE",
        "type": "FIS",
        "sequence": 10,
        "latitude": 46.179211,
        "longitude": -1.195236,
        "source": "SIA",
        "airac": "2026-05-14",
        "sia_uid": "1525352"
      }
    },
    {
      "type": "Feature",
      "id": "SER_1525354",
      "geometry": {
        "type": "Point",
        "coordinates": [
          -1.732233,
          48.071933
        ]
      },
      "properties": {
        "id": "SER_1525354",
        "unit_name": "LFRN RENNES",
        "type": "VDF",
        "sequence": 10,
        "latitude": 48.071933,
        "longitude": -1.732233,
        "source": "SIA",
        "airac": "2026-05-14",
        "sia_uid": "1525354"
      }
    },
    {
      "type": "Feature",
      "id": "SER_1525356",
      "geometry": {
        "type": "Point",
        "coordinates": [
          0.590619,
          44.174714
        ]
      },
      "properties": {
        "id": "SER_1525356",
        "unit_name": "LFBA AGEN",
        "type": "TWR",
        "sequence": 10,
        "latitude": 44.174714,
        "longitude": 0.590619,
        "source": "SIA",
        "airac": "2026-05-14",
        "sia_uid": "1525356"
      }
    },
    {
      "type": "Feature",
      "id": "SER_1525358",
      "geometry": {
        "type": "Point",
        "coordinates": [
          5.786111,
          43.252222
        ]
      },
      "properties": {
        "id": "SER_1525358",
        "unit_name": "LFMQ LE CASTELLET",
        "type": "AFIS",
        "sequence": 10,
        "latitude": 43.252222,
        "longitude": 5.786111,
        "source": "SIA",
        "airac": "2026-05-14",
        "sia_uid": "1525358"
      }
    },
    {
      "type": "Feature",
      "id": "SER_1525360",
      "geometry": {
        "type": "Point",
        "coordinates": [
          5.990833,
          44.058611
        ]
      },
      "properties": {
        "id": "SER_1525360",
        "unit_name": "LFMX SAINT AUBAN",
        "type": "OTHER",
        "sequence": 10,
        "latitude": 44.058611,
        "longitude": 5.990833,
        "source": "SIA",
        "airac": "2026-05-14",
        "sia_uid": "1525360"
      }
    },
    {
      "type": "Feature",
      "id": "SER_1525362",
      "geometry": {
        "type": "Point",
        "coordinates": [
          -3.439953,
          47.760533
        ]
      },
      "properties": {
        "id": "SER_1525362",
        "unit_name": "LFRH LORIENT",
        "type": "VDF",
        "sequence": 10,
        "latitude": 47.760533,
        "longitude": -3.439953,
        "source": "SIA",
        "airac": "2026-05-14",
        "sia_uid": "1525362"
      }
    },
    {
      "type": "Feature",
      "id": "SER_1525366",
      "geometry": {
        "type": "Point",
        "coordinates": [
          3.5875,
          46.253056
        ]
      },
      "properties": {
        "id": "SER_1525366",
        "unit_name": "LFHX LAPALISSE",
        "type": "OTHER",
        "sequence": 10,
        "latitude": 46.253056,
        "longitude": 3.5875,
        "source": "SIA",
        "airac": "2026-05-14",
        "sia_uid": "1525366"
      }
    },
    {
      "type": "Feature",
      "id": "SER_1525368",
      "geometry": {
        "type": "Point",
        "coordinates": [
          2.111178,
          48.749756
        ]
      },
      "properties": {
        "id": "SER_1525368",
        "unit_name": "LFPN TOUSSUS",
        "type": "ATIS",
        "sequence": 10,
        "latitude": 48.749756,
        "longitude": 2.111178,
        "source": "SIA",
        "airac": "2026-05-14",
        "sia_uid": "1525368"
      }
    },
    {
      "type": "Feature",
      "id": "SER_1525370",
      "geometry": {
        "type": "Point",
        "coordinates": [
          0.590619,
          44.174714
        ]
      },
      "properties": {
        "id": "SER_1525370",
        "unit_name": "LFBA AGEN",
        "type": "VDF",
        "sequence": 10,
        "latitude": 44.174714,
        "longitude": 0.590619,
        "source": "SIA",
        "airac": "2026-05-14",
        "sia_uid": "1525370"
      }
    },
    {
      "type": "Feature",
      "id": "SER_1525372",
      "geometry": {
        "type": "Point",
        "coordinates": [
          4.642808,
          49.785053
        ]
      },
      "properties": {
        "id": "SER_1525372",
        "unit_name": "LFQV CHARLEVILLE",
        "type": "OTHER",
        "sequence": 10,
        "latitude": 49.785053,
        "longitude": 4.642808,
        "source": "SIA",
        "airac": "2026-05-14",
        "sia_uid": "1525372"
      }
    },
    {
      "type": "Feature",
      "id": "SER_1525374",
      "geometry": {
        "type": "Point",
        "coordinates": [
          3.631667,
          49.595833
        ]
      },
      "properties": {
        "id": "SER_1525374",
        "unit_name": "LFAF LAON",
        "type": "OTHER",
        "sequence": 10,
        "latitude": 49.595833,
        "longitude": 3.631667,
        "source": "SIA",
        "airac": "2026-05-14",
        "sia_uid": "1525374"
      }
    },
    {
      "type": "Feature",
      "id": "SER_1525380",
      "geometry": {
        "type": "Point",
        "coordinates": [
          -3.816669,
          48.600747
        ]
      },
      "properties": {
        "id": "SER_1525380",
        "unit_name": "LFRU MORLAIX",
        "type": "AFIS",
        "sequence": 10,
        "latitude": 48.600747,
        "longitude": -3.816669,
        "source": "SIA",
        "airac": "2026-05-14",
        "sia_uid": "1525380"
      }
    },
    {
      "type": "Feature",
      "id": "SER_1525384",
      "geometry": {
        "type": "Point",
        "coordinates": [
          -2.856542,
          48.537492
        ]
      },
      "properties": {
        "id": "SER_1525384",
        "unit_name": "LFRT SAINT BRIEUC",
        "type": "AFIS",
        "sequence": 10,
        "latitude": 48.537492,
        "longitude": -2.856542,
        "source": "SIA",
        "airac": "2026-05-14",
        "sia_uid": "1525384"
      }
    },
    {
      "type": "Feature",
      "id": "SER_1525386",
      "geometry": {
        "type": "Point",
        "coordinates": [
          2.441492,
          48.969525
        ]
      },
      "properties": {
        "id": "SER_1525386",
        "unit_name": "LFPB LE BOURGET",
        "type": "TWR",
        "sequence": 30,
        "latitude": 48.969525,
        "longitude": 2.441492,
        "source": "SIA",
        "airac": "2026-05-14",
        "sia_uid": "1525386"
      }
    },
    {
      "type": "Feature",
      "id": "SER_1525388",
      "geometry": {
        "type": "Point",
        "coordinates": [
          5.367222,
          43.505278
        ]
      },
      "properties": {
        "id": "SER_1525388",
        "unit_name": "LFMA AIX",
        "type": "TWR",
        "sequence": 10,
        "latitude": 43.505278,
        "longitude": 5.367222,
        "source": "SIA",
        "airac": "2026-05-14",
        "sia_uid": "1525388"
      }
    },
    {
      "type": "Feature",
      "id": "SER_1525390",
      "geometry": {
        "type": "Point",
        "coordinates": [
          2.640094,
          50.6166
        ]
      },
      "properties": {
        "id": "SER_1525390",
        "unit_name": "LFQT MERVILLE",
        "type": "ATIS",
        "sequence": 10,
        "latitude": 50.6166,
        "longitude": 2.640094,
        "source": "SIA",
        "airac": "2026-05-14",
        "sia_uid": "1525390"
      }
    },
    {
      "type": "Feature",
      "id": "SER_1525394",
      "geometry": {
        "type": "Point",
        "coordinates": [
          4.795858,
          46.295922
        ]
      },
      "properties": {
        "id": "SER_1525394",
        "unit_name": "LFLM MACON",
        "type": "OTHER",
        "sequence": 10,
        "latitude": 46.295922,
        "longitude": 4.795858,
        "source": "SIA",
        "airac": "2026-05-14",
        "sia_uid": "1525394"
      }
    },
    {
      "type": "Feature",
      "id": "SER_1525402",
      "geometry": {
        "type": "Point",
        "coordinates": [
          4.416344,
          43.757428
        ]
      },
      "properties": {
        "id": "SER_1525402",
        "unit_name": "LFTW GARONS",
        "type": "ATIS",
        "sequence": 10,
        "latitude": 43.757428,
        "longitude": 4.416344,
        "source": "SIA",
        "airac": "2026-05-14",
        "sia_uid": "1525402"
      }
    },
    {
      "type": "Feature",
      "id": "SER_1525404",
      "geometry": {
        "type": "Point",
        "coordinates": [
          166.216111,
          -22.016389
        ]
      },
      "properties": {
        "id": "SER_1525404",
        "unit_name": "NWWW TONTOUTA",
        "type": "FIS",
        "sequence": 10,
        "latitude": -22.016389,
        "longitude": 166.216111,
        "source": "SIA",
        "airac": "2026-05-14",
        "sia_uid": "1525404"
      }
    },
    {
      "type": "Feature",
      "id": "SER_1525406",
      "geometry": {
        "type": "Point",
        "coordinates": [
          -3.439953,
          47.760533
        ]
      },
      "properties": {
        "id": "SER_1525406",
        "unit_name": "LFRH LORIENT",
        "type": "PAR",
        "sequence": 10,
        "latitude": 47.760533,
        "longitude": -3.439953,
        "source": "SIA",
        "airac": "2026-05-14",
        "sia_uid": "1525406"
      }
    },
    {
      "type": "Feature",
      "id": "SER_1525408",
      "geometry": {
        "type": "Point",
        "coordinates": [
          3.278889,
          48.7575
        ]
      },
      "properties": {
        "id": "SER_1525408",
        "unit_name": "LFFG LA FERTE GAUCHER",
        "type": "OTHER",
        "sequence": 10,
        "latitude": 48.7575,
        "longitude": 3.278889,
        "source": "SIA",
        "airac": "2026-05-14",
        "sia_uid": "1525408"
      }
    },
    {
      "type": "Feature",
      "id": "SER_1525410",
      "geometry": {
        "type": "Point",
        "coordinates": [
          2.379578,
          48.723281
        ]
      },
      "properties": {
        "id": "SER_1525410",
        "unit_name": "LFPO ORLY",
        "type": "ATIS",
        "sequence": 10,
        "latitude": 48.723281,
        "longitude": 2.379578,
        "source": "SIA",
        "airac": "2026-05-14",
        "sia_uid": "1525410"
      }
    },
    {
      "type": "Feature",
      "id": "SER_1525412",
      "geometry": {
        "type": "Point",
        "coordinates": [
          8.802436,
          41.923897
        ]
      },
      "properties": {
        "id": "SER_1525412",
        "unit_name": "LFKJ AJACCIO",
        "type": "FIS",
        "sequence": 10,
        "latitude": 41.923897,
        "longitude": 8.802436,
        "source": "SIA",
        "airac": "2026-05-14",
        "sia_uid": "1525412"
      }
    },
    {
      "type": "Feature",
      "id": "SER_1525414",
      "geometry": {
        "type": "Point",
        "coordinates": [
          3.961378,
          43.583261
        ]
      },
      "properties": {
        "id": "SER_1525414",
        "unit_name": "LFMT MONTPELLIER",
        "type": "VDF",
        "sequence": 10,
        "latitude": 43.583261,
        "longitude": 3.961378,
        "source": "SIA",
        "airac": "2026-05-14",
        "sia_uid": "1525414"
      }
    },
    {
      "type": "Feature",
      "id": "SER_1525416",
      "geometry": {
        "type": "Point",
        "coordinates": [
          -1.732233,
          48.071933
        ]
      },
      "properties": {
        "id": "SER_1525416",
        "unit_name": "LFRN RENNES",
        "type": "ATIS",
        "sequence": 10,
        "latitude": 48.071933,
        "longitude": -1.732233,
        "source": "SIA",
        "airac": "2026-05-14",
        "sia_uid": "1525416"
      }
    },
    {
      "type": "Feature",
      "id": "SER_1525418",
      "geometry": {
        "type": "Point",
        "coordinates": [
          -0.423056,
          45.483056
        ]
      },
      "properties": {
        "id": "SER_1525418",
        "unit_name": "LFCJ JONZAC",
        "type": "OTHER",
        "sequence": 10,
        "latitude": 45.483056,
        "longitude": -0.423056,
        "source": "SIA",
        "airac": "2026-05-14",
        "sia_uid": "1525418"
      }
    },
    {
      "type": "Feature",
      "id": "SER_1525420",
      "geometry": {
        "type": "Point",
        "coordinates": [
          1.498611,
          43.587778
        ]
      },
      "properties": {
        "id": "SER_1525420",
        "unit_name": "LFCL LASBORDES",
        "type": "TWR",
        "sequence": 10,
        "latitude": 43.587778,
        "longitude": 1.498611,
        "source": "SIA",
        "airac": "2026-05-14",
        "sia_uid": "1525420"
      }
    },
    {
      "type": "Feature",
      "id": "SER_1525422",
      "geometry": {
        "type": "Point",
        "coordinates": [
          1.721125,
          46.860314
        ]
      },
      "properties": {
        "id": "SER_1525422",
        "unit_name": "LFLX CHATEAUROUX",
        "type": "AFIS",
        "sequence": 10,
        "latitude": 46.860314,
        "longitude": 1.721125,
        "source": "SIA",
        "airac": "2026-05-14",
        "sia_uid": "1525422"
      }
    },
    {
      "type": "Feature",
      "id": "SER_1525430",
      "geometry": {
        "type": "Point",
        "coordinates": [
          2.379578,
          48.723281
        ]
      },
      "properties": {
        "id": "SER_1525430",
        "unit_name": "LFPO ORLY",
        "type": "TWR",
        "sequence": 20,
        "latitude": 48.723281,
        "longitude": 2.379578,
        "source": "SIA",
        "airac": "2026-05-14",
        "sia_uid": "1525430"
      }
    },
    {
      "type": "Feature",
      "id": "SER_1525434",
      "geometry": {
        "type": "Point",
        "coordinates": [
          3.266111,
          45.513889
        ]
      },
      "properties": {
        "id": "SER_1525434",
        "unit_name": "LFHA ISSOIRE",
        "type": "OTHER",
        "sequence": 10,
        "latitude": 45.513889,
        "longitude": 3.266111,
        "source": "SIA",
        "airac": "2026-05-14",
        "sia_uid": "1525434"
      }
    },
    {
      "type": "Feature",
      "id": "SER_1525436",
      "geometry": {
        "type": "Point",
        "coordinates": [
          5.332664,
          45.362936
        ]
      },
      "properties": {
        "id": "SER_1525436",
        "unit_name": "LFLS GRENOBLE",
        "type": "TWR",
        "sequence": 10,
        "latitude": 45.362936,
        "longitude": 5.332664,
        "source": "SIA",
        "airac": "2026-05-14",
        "sia_uid": "1525436"
      }
    },
    {
      "type": "Feature",
      "id": "SER_1525438",
      "geometry": {
        "type": "Point",
        "coordinates": [
          -60.996389,
          14.592222
        ]
      },
      "properties": {
        "id": "SER_1525438",
        "unit_name": "TFFF MARTINIQUE",
        "type": "TWR",
        "sequence": 10,
        "latitude": 14.592222,
        "longitude": -60.996389,
        "source": "SIA",
        "airac": "2026-05-14",
        "sia_uid": "1525438"
      }
    },
    {
      "type": "Feature",
      "id": "SER_1525544",
      "geometry": {
        "type": "Point",
        "coordinates": [
          7.529222,
          47.589878
        ]
      },
      "properties": {
        "id": "SER_1525544",
        "unit_name": "LFSB BALE",
        "type": "APP",
        "sequence": 20,
        "latitude": 47.589878,
        "longitude": 7.529222,
        "source": "SIA",
        "airac": "2026-05-14",
        "sia_uid": "1525544"
      }
    },
    {
      "type": "Feature",
      "id": "SER_1525550",
      "geometry": {
        "type": "Point",
        "coordinates": [
          6.701667,
          43.608056
        ]
      },
      "properties": {
        "id": "SER_1525550",
        "unit_name": "LFMF FAYENCE",
        "type": "OTHER",
        "sequence": 10,
        "latitude": 43.608056,
        "longitude": 6.701667,
        "source": "SIA",
        "airac": "2026-05-14",
        "sia_uid": "1525550"
      }
    },
    {
      "type": "Feature",
      "id": "SER_1525442",
      "geometry": {
        "type": "Point",
        "coordinates": [
          5.332664,
          45.362936
        ]
      },
      "properties": {
        "id": "SER_1525442",
        "unit_name": "LFLS GRENOBLE",
        "type": "ATIS",
        "sequence": 10,
        "latitude": 45.362936,
        "longitude": 5.332664,
        "source": "SIA",
        "airac": "2026-05-14",
        "sia_uid": "1525442"
      }
    },
    {
      "type": "Feature",
      "id": "SER_1525444",
      "geometry": {
        "type": "Point",
        "coordinates": [
          -0.715344,
          44.828653
        ]
      },
      "properties": {
        "id": "SER_1525444",
        "unit_name": "LFBD BORDEAUX MERIGNAC",
        "type": "APP",
        "sequence": 10,
        "latitude": 44.828653,
        "longitude": -0.715344,
        "source": "SIA",
        "airac": "2026-05-14",
        "sia_uid": "1525444"
      }
    },
    {
      "type": "Feature",
      "id": "SER_1525446",
      "geometry": {
        "type": "Point",
        "coordinates": [
          7.819167,
          48.796944
        ]
      },
      "properties": {
        "id": "SER_1525446",
        "unit_name": "LFSH HAGUENAU",
        "type": "OTHER",
        "sequence": 10,
        "latitude": 48.796944,
        "longitude": 7.819167,
        "source": "SIA",
        "airac": "2026-05-14",
        "sia_uid": "1525446"
      }
    },
    {
      "type": "Feature",
      "id": "SER_1525448",
      "geometry": {
        "type": "Point",
        "coordinates": [
          8.802436,
          41.923897
        ]
      },
      "properties": {
        "id": "SER_1525448",
        "unit_name": "LFKJ AJACCIO",
        "type": "ATIS",
        "sequence": 10,
        "latitude": 41.923897,
        "longitude": 8.802436,
        "source": "SIA",
        "airac": "2026-05-14",
        "sia_uid": "1525448"
      }
    },
    {
      "type": "Feature",
      "id": "SER_1525450",
      "geometry": {
        "type": "Point",
        "coordinates": [
          4.938844,
          45.729519
        ]
      },
      "properties": {
        "id": "SER_1525450",
        "unit_name": "LFLY BRON",
        "type": "TWR",
        "sequence": 10,
        "latitude": 45.729519,
        "longitude": 4.938844,
        "source": "SIA",
        "airac": "2026-05-14",
        "sia_uid": "1525450"
      }
    },
    {
      "type": "Feature",
      "id": "SER_1525452",
      "geometry": {
        "type": "Point",
        "coordinates": [
          2.379578,
          48.723281
        ]
      },
      "properties": {
        "id": "SER_1525452",
        "unit_name": "LFPO ORLY",
        "type": "TWR",
        "sequence": 30,
        "latitude": 48.723281,
        "longitude": 2.379578,
        "source": "SIA",
        "airac": "2026-05-14",
        "sia_uid": "1525452"
      }
    },
    {
      "type": "Feature",
      "id": "SER_1525454",
      "geometry": {
        "type": "Point",
        "coordinates": [
          0.590619,
          44.174714
        ]
      },
      "properties": {
        "id": "SER_1525454",
        "unit_name": "LFBA AGEN",
        "type": "ATIS",
        "sequence": 10,
        "latitude": 44.174714,
        "longitude": 0.590619,
        "source": "SIA",
        "airac": "2026-05-14",
        "sia_uid": "1525454"
      }
    },
    {
      "type": "Feature",
      "id": "SER_1525456",
      "geometry": {
        "type": "Point",
        "coordinates": [
          4.938844,
          45.729519
        ]
      },
      "properties": {
        "id": "SER_1525456",
        "unit_name": "LFLY BRON",
        "type": "TWR",
        "sequence": 20,
        "latitude": 45.729519,
        "longitude": 4.938844,
        "source": "SIA",
        "airac": "2026-05-14",
        "sia_uid": "1525456"
      }
    },
    {
      "type": "Feature",
      "id": "SER_1525458",
      "geometry": {
        "type": "Point",
        "coordinates": [
          -60.996389,
          14.592222
        ]
      },
      "properties": {
        "id": "SER_1525458",
        "unit_name": "TFFF MARTINIQUE",
        "type": "TWR",
        "sequence": 20,
        "latitude": 14.592222,
        "longitude": -60.996389,
        "source": "SIA",
        "airac": "2026-05-14",
        "sia_uid": "1525458"
      }
    },
    {
      "type": "Feature",
      "id": "SER_1525464",
      "geometry": {
        "type": "Point",
        "coordinates": [
          3.961378,
          43.583261
        ]
      },
      "properties": {
        "id": "SER_1525464",
        "unit_name": "LFMT MONTPELLIER",
        "type": "TWR",
        "sequence": 20,
        "latitude": 43.583261,
        "longitude": 3.961378,
        "source": "SIA",
        "airac": "2026-05-14",
        "sia_uid": "1525464"
      }
    },
    {
      "type": "Feature",
      "id": "SER_1525470",
      "geometry": {
        "type": "Point",
        "coordinates": [
          8.802436,
          41.923897
        ]
      },
      "properties": {
        "id": "SER_1525470",
        "unit_name": "LFKJ AJACCIO",
        "type": "APP",
        "sequence": 10,
        "latitude": 41.923897,
        "longitude": 8.802436,
        "source": "SIA",
        "airac": "2026-05-14",
        "sia_uid": "1525470"
      }
    },
    {
      "type": "Feature",
      "id": "SER_1525472",
      "geometry": {
        "type": "Point",
        "coordinates": [
          -3.664036,
          48.053736
        ]
      },
      "properties": {
        "id": "SER_1525472",
        "unit_name": "LFES GUISCRIFF",
        "type": "OTHER",
        "sequence": 10,
        "latitude": 48.053736,
        "longitude": -3.664036,
        "source": "SIA",
        "airac": "2026-05-14",
        "sia_uid": "1525472"
      }
    },
    {
      "type": "Feature",
      "id": "SER_1525474",
      "geometry": {
        "type": "Point",
        "coordinates": [
          5.332664,
          45.362936
        ]
      },
      "properties": {
        "id": "SER_1525474",
        "unit_name": "LFLS GRENOBLE",
        "type": "VDF",
        "sequence": 10,
        "latitude": 45.362936,
        "longitude": 5.332664,
        "source": "SIA",
        "airac": "2026-05-14",
        "sia_uid": "1525474"
      }
    },
    {
      "type": "Feature",
      "id": "SER_1525480",
      "geometry": {
        "type": "Point",
        "coordinates": [
          8.802436,
          41.923897
        ]
      },
      "properties": {
        "id": "SER_1525480",
        "unit_name": "LFKJ AJACCIO",
        "type": "TWR",
        "sequence": 10,
        "latitude": 41.923897,
        "longitude": 8.802436,
        "source": "SIA",
        "airac": "2026-05-14",
        "sia_uid": "1525480"
      }
    },
    {
      "type": "Feature",
      "id": "SER_1525482",
      "geometry": {
        "type": "Point",
        "coordinates": [
          3.961378,
          43.583261
        ]
      },
      "properties": {
        "id": "SER_1525482",
        "unit_name": "LFMT MONTPELLIER",
        "type": "TWR",
        "sequence": 10,
        "latitude": 43.583261,
        "longitude": 3.961378,
        "source": "SIA",
        "airac": "2026-05-14",
        "sia_uid": "1525482"
      }
    },
    {
      "type": "Feature",
      "id": "SER_1525484",
      "geometry": {
        "type": "Point",
        "coordinates": [
          2.78185,
          47.614581
        ]
      },
      "properties": {
        "id": "SER_1525484",
        "unit_name": "LFEI BRIARE",
        "type": "OTHER",
        "sequence": 10,
        "latitude": 47.614581,
        "longitude": 2.78185,
        "source": "SIA",
        "airac": "2026-05-14",
        "sia_uid": "1525484"
      }
    },
    {
      "type": "Feature",
      "id": "SER_1525486",
      "geometry": {
        "type": "Point",
        "coordinates": [
          8.802436,
          41.923897
        ]
      },
      "properties": {
        "id": "SER_1525486",
        "unit_name": "LFKJ AJACCIO",
        "type": "TWR",
        "sequence": 20,
        "latitude": 41.923897,
        "longitude": 8.802436,
        "source": "SIA",
        "airac": "2026-05-14",
        "sia_uid": "1525486"
      }
    },
    {
      "type": "Feature",
      "id": "SER_1525488",
      "geometry": {
        "type": "Point",
        "coordinates": [
          2.007778,
          43.768611
        ]
      },
      "properties": {
        "id": "SER_1525488",
        "unit_name": "LFCQ GRAULHET",
        "type": "OTHER",
        "sequence": 10,
        "latitude": 43.768611,
        "longitude": 2.007778,
        "source": "SIA",
        "airac": "2026-05-14",
        "sia_uid": "1525488"
      }
    },
    {
      "type": "Feature",
      "id": "SER_1525498",
      "geometry": {
        "type": "Point",
        "coordinates": [
          2.379578,
          48.723281
        ]
      },
      "properties": {
        "id": "SER_1525498",
        "unit_name": "LFPO ORLY",
        "type": "TWR",
        "sequence": 10,
        "latitude": 48.723281,
        "longitude": 2.379578,
        "source": "SIA",
        "airac": "2026-05-14",
        "sia_uid": "1525498"
      }
    },
    {
      "type": "Feature",
      "id": "SER_1525502",
      "geometry": {
        "type": "Point",
        "coordinates": [
          3.961378,
          43.583261
        ]
      },
      "properties": {
        "id": "SER_1525502",
        "unit_name": "LFMT MONTPELLIER",
        "type": "APP",
        "sequence": 10,
        "latitude": 43.583261,
        "longitude": 3.961378,
        "source": "SIA",
        "airac": "2026-05-14",
        "sia_uid": "1525502"
      }
    },
    {
      "type": "Feature",
      "id": "SER_1525506",
      "geometry": {
        "type": "Point",
        "coordinates": [
          -1.732233,
          48.071933
        ]
      },
      "properties": {
        "id": "SER_1525506",
        "unit_name": "LFRN RENNES",
        "type": "TWR",
        "sequence": 20,
        "latitude": 48.071933,
        "longitude": -1.732233,
        "source": "SIA",
        "airac": "2026-05-14",
        "sia_uid": "1525506"
      }
    },
    {
      "type": "Feature",
      "id": "SER_1525508",
      "geometry": {
        "type": "Point",
        "coordinates": [
          167.455278,
          -22.588611
        ]
      },
      "properties": {
        "id": "SER_1525508",
        "unit_name": "NWWE ILE DES PINS",
        "type": "AFIS",
        "sequence": 10,
        "latitude": -22.588611,
        "longitude": 167.455278,
        "source": "SIA",
        "airac": "2026-05-14",
        "sia_uid": "1525508"
      }
    },
    {
      "type": "Feature",
      "id": "SER_1525510",
      "geometry": {
        "type": "Point",
        "coordinates": [
          5.332664,
          45.362936
        ]
      },
      "properties": {
        "id": "SER_1525510",
        "unit_name": "LFLS GRENOBLE",
        "type": "TWR",
        "sequence": 20,
        "latitude": 45.362936,
        "longitude": 5.332664,
        "source": "SIA",
        "airac": "2026-05-14",
        "sia_uid": "1525510"
      }
    },
    {
      "type": "Feature",
      "id": "SER_1525512",
      "geometry": {
        "type": "Point",
        "coordinates": [
          1.498611,
          43.587778
        ]
      },
      "properties": {
        "id": "SER_1525512",
        "unit_name": "LFCL LASBORDES",
        "type": "ATIS",
        "sequence": 10,
        "latitude": 43.587778,
        "longitude": 1.498611,
        "source": "SIA",
        "airac": "2026-05-14",
        "sia_uid": "1525512"
      }
    },
    {
      "type": "Feature",
      "id": "SER_1525514",
      "geometry": {
        "type": "Point",
        "coordinates": [
          5.434928,
          47.042694
        ]
      },
      "properties": {
        "id": "SER_1525514",
        "unit_name": "LFGJ DOLE",
        "type": "AFIS",
        "sequence": 10,
        "latitude": 47.042694,
        "longitude": 5.434928,
        "source": "SIA",
        "airac": "2026-05-14",
        "sia_uid": "1525514"
      }
    },
    {
      "type": "Feature",
      "id": "SER_1525516",
      "geometry": {
        "type": "Point",
        "coordinates": [
          1.874167,
          43.883056
        ]
      },
      "properties": {
        "id": "SER_1525516",
        "unit_name": "LFDG GAILLAC",
        "type": "OTHER",
        "sequence": 10,
        "latitude": 43.883056,
        "longitude": 1.874167,
        "source": "SIA",
        "airac": "2026-05-14",
        "sia_uid": "1525516"
      }
    },
    {
      "type": "Feature",
      "id": "SER_1525518",
      "geometry": {
        "type": "Point",
        "coordinates": [
          8.802436,
          41.923897
        ]
      },
      "properties": {
        "id": "SER_1525518",
        "unit_name": "LFKJ AJACCIO",
        "type": "VDF",
        "sequence": 10,
        "latitude": 41.923897,
        "longitude": 8.802436,
        "source": "SIA",
        "airac": "2026-05-14",
        "sia_uid": "1525518"
      }
    },
    {
      "type": "Feature",
      "id": "SER_1525520",
      "geometry": {
        "type": "Point",
        "coordinates": [
          3.961378,
          43.583261
        ]
      },
      "properties": {
        "id": "SER_1525520",
        "unit_name": "LFMT MONTPELLIER",
        "type": "ATIS",
        "sequence": 10,
        "latitude": 43.583261,
        "longitude": 3.961378,
        "source": "SIA",
        "airac": "2026-05-14",
        "sia_uid": "1525520"
      }
    },
    {
      "type": "Feature",
      "id": "SER_1525522",
      "geometry": {
        "type": "Point",
        "coordinates": [
          3.404033,
          46.171783
        ]
      },
      "properties": {
        "id": "SER_1525522",
        "unit_name": "LFLV VICHY",
        "type": "AFIS",
        "sequence": 10,
        "latitude": 46.171783,
        "longitude": 3.404033,
        "source": "SIA",
        "airac": "2026-05-14",
        "sia_uid": "1525522"
      }
    },
    {
      "type": "Feature",
      "id": "SER_1525524",
      "geometry": {
        "type": "Point",
        "coordinates": [
          9.096747,
          41.502108
        ]
      },
      "properties": {
        "id": "SER_1525524",
        "unit_name": "LFKF FIGARI",
        "type": "TWR",
        "sequence": 20,
        "latitude": 41.502108,
        "longitude": 9.096747,
        "source": "SIA",
        "airac": "2026-05-14",
        "sia_uid": "1525524"
      }
    },
    {
      "type": "Feature",
      "id": "SER_1525526",
      "geometry": {
        "type": "Point",
        "coordinates": [
          2.11675,
          43.913278
        ]
      },
      "properties": {
        "id": "SER_1525526",
        "unit_name": "LFCI ALBI",
        "type": "AFIS",
        "sequence": 10,
        "latitude": 43.913278,
        "longitude": 2.11675,
        "source": "SIA",
        "airac": "2026-05-14",
        "sia_uid": "1525526"
      }
    },
    {
      "type": "Feature",
      "id": "SER_1525530",
      "geometry": {
        "type": "Point",
        "coordinates": [
          2.902778,
          48.706111
        ]
      },
      "properties": {
        "id": "SER_1525530",
        "unit_name": "LFPQ FONTENAY TRESIGNY",
        "type": "OTHER",
        "sequence": 10,
        "latitude": 48.706111,
        "longitude": 2.902778,
        "source": "SIA",
        "airac": "2026-05-14",
        "sia_uid": "1525530"
      }
    },
    {
      "type": "Feature",
      "id": "SER_1525534",
      "geometry": {
        "type": "Point",
        "coordinates": [
          2.547819,
          49.009747
        ]
      },
      "properties": {
        "id": "SER_1525534",
        "unit_name": "LFPG DE GAULLE",
        "type": "TWR",
        "sequence": 30,
        "latitude": 49.009747,
        "longitude": 2.547819,
        "source": "SIA",
        "airac": "2026-05-14",
        "sia_uid": "1525534"
      }
    },
    {
      "type": "Feature",
      "id": "SER_1525536",
      "geometry": {
        "type": "Point",
        "coordinates": [
          -0.560278,
          43.164722
        ]
      },
      "properties": {
        "id": "SER_1525536",
        "unit_name": "LFCO OLORON",
        "type": "OTHER",
        "sequence": 10,
        "latitude": 43.164722,
        "longitude": -0.560278,
        "source": "SIA",
        "airac": "2026-05-14",
        "sia_uid": "1525536"
      }
    },
    {
      "type": "Feature",
      "id": "SER_1525552",
      "geometry": {
        "type": "Point",
        "coordinates": [
          9.096747,
          41.502108
        ]
      },
      "properties": {
        "id": "SER_1525552",
        "unit_name": "LFKF FIGARI",
        "type": "TWR",
        "sequence": 10,
        "latitude": 41.502108,
        "longitude": 9.096747,
        "source": "SIA",
        "airac": "2026-05-14",
        "sia_uid": "1525552"
      }
    },
    {
      "type": "Feature",
      "id": "SER_1525556",
      "geometry": {
        "type": "Point",
        "coordinates": [
          -0.05725,
          44.566947
        ]
      },
      "properties": {
        "id": "SER_1525556",
        "unit_name": "LFDR LA REOLE FLOUDES",
        "type": "OTHER",
        "sequence": 10,
        "latitude": 44.566947,
        "longitude": -0.05725,
        "source": "SIA",
        "airac": "2026-05-14",
        "sia_uid": "1525556"
      }
    },
    {
      "type": "Feature",
      "id": "SER_1525558",
      "geometry": {
        "type": "Point",
        "coordinates": [
          3.465556,
          44.285556
        ]
      },
      "properties": {
        "id": "SER_1525558",
        "unit_name": "LFNO FLORAC",
        "type": "OTHER",
        "sequence": 10,
        "latitude": 44.285556,
        "longitude": 3.465556,
        "source": "SIA",
        "airac": "2026-05-14",
        "sia_uid": "1525558"
      }
    },
    {
      "type": "Feature",
      "id": "SER_1525560",
      "geometry": {
        "type": "Point",
        "coordinates": [
          2.547819,
          49.009747
        ]
      },
      "properties": {
        "id": "SER_1525560",
        "unit_name": "LFPG DE GAULLE",
        "type": "TWR",
        "sequence": 40,
        "latitude": 49.009747,
        "longitude": 2.547819,
        "source": "SIA",
        "airac": "2026-05-14",
        "sia_uid": "1525560"
      }
    },
    {
      "type": "Feature",
      "id": "SER_1525568",
      "geometry": {
        "type": "Point",
        "coordinates": [
          3.465444,
          50.324792
        ]
      },
      "properties": {
        "id": "SER_1525568",
        "unit_name": "LFAV VALENCIENNES",
        "type": "AFIS",
        "sequence": 10,
        "latitude": 50.324792,
        "longitude": 3.465444,
        "source": "SIA",
        "airac": "2026-05-14",
        "sia_uid": "1525568"
      }
    },
    {
      "type": "Feature",
      "id": "SER_1525570",
      "geometry": {
        "type": "Point",
        "coordinates": [
          5.848611,
          45.218056
        ]
      },
      "properties": {
        "id": "SER_1525570",
        "unit_name": "LFLG LE VERSOUD",
        "type": "TWR",
        "sequence": 10,
        "latitude": 45.218056,
        "longitude": 5.848611,
        "source": "SIA",
        "airac": "2026-05-14",
        "sia_uid": "1525570"
      }
    },
    {
      "type": "Feature",
      "id": "SER_1525572",
      "geometry": {
        "type": "Point",
        "coordinates": [
          -0.144722,
          48.926944
        ]
      },
      "properties": {
        "id": "SER_1525572",
        "unit_name": "LFAS FALAISE",
        "type": "OTHER",
        "sequence": 10,
        "latitude": 48.926944,
        "longitude": -0.144722,
        "source": "SIA",
        "airac": "2026-05-14",
        "sia_uid": "1525572"
      }
    },
    {
      "type": "Feature",
      "id": "SER_1525582",
      "geometry": {
        "type": "Point",
        "coordinates": [
          -1.195236,
          46.179211
        ]
      },
      "properties": {
        "id": "SER_1525582",
        "unit_name": "LFBH LA ROCHELLE",
        "type": "ATIS",
        "sequence": 10,
        "latitude": 46.179211,
        "longitude": -1.195236,
        "source": "SIA",
        "airac": "2026-05-14",
        "sia_uid": "1525582"
      }
    },
    {
      "type": "Feature",
      "id": "SER_1525592",
      "geometry": {
        "type": "Point",
        "coordinates": [
          1.361389,
          48.705833
        ]
      },
      "properties": {
        "id": "SER_1525592",
        "unit_name": "LFON DREUX",
        "type": "OTHER",
        "sequence": 10,
        "latitude": 48.705833,
        "longitude": 1.361389,
        "source": "SIA",
        "airac": "2026-05-14",
        "sia_uid": "1525592"
      }
    },
    {
      "type": "Feature",
      "id": "SER_1525594",
      "geometry": {
        "type": "Point",
        "coordinates": [
          2.547819,
          49.009747
        ]
      },
      "properties": {
        "id": "SER_1525594",
        "unit_name": "LFPG DE GAULLE",
        "type": "TWR",
        "sequence": 10,
        "latitude": 49.009747,
        "longitude": 2.547819,
        "source": "SIA",
        "airac": "2026-05-14",
        "sia_uid": "1525594"
      }
    },
    {
      "type": "Feature",
      "id": "SER_1525600",
      "geometry": {
        "type": "Point",
        "coordinates": [
          5.954525,
          48.583186
        ]
      },
      "properties": {
        "id": "SER_1525600",
        "unit_name": "LFSO OCHEY",
        "type": "APP",
        "sequence": 10,
        "latitude": 48.583186,
        "longitude": 5.954525,
        "source": "SIA",
        "airac": "2026-05-14",
        "sia_uid": "1525600"
      }
    },
    {
      "type": "Feature",
      "id": "SER_1525602",
      "geometry": {
        "type": "Point",
        "coordinates": [
          2.351944,
          49.045556
        ]
      },
      "properties": {
        "id": "SER_1525602",
        "unit_name": "LFFE ENGHIEN",
        "type": "OTHER",
        "sequence": 10,
        "latitude": 49.045556,
        "longitude": 2.351944,
        "source": "SIA",
        "airac": "2026-05-14",
        "sia_uid": "1525602"
      }
    },
    {
      "type": "Feature",
      "id": "SER_1525604",
      "geometry": {
        "type": "Point",
        "coordinates": [
          6.036667,
          44.453889
        ]
      },
      "properties": {
        "id": "SER_1525604",
        "unit_name": "LFNA GAP",
        "type": "AFIS",
        "sequence": 10,
        "latitude": 44.453889,
        "longitude": 6.036667,
        "source": "SIA",
        "airac": "2026-05-14",
        "sia_uid": "1525604"
      }
    },
    {
      "type": "Feature",
      "id": "SER_1525606",
      "geometry": {
        "type": "Point",
        "coordinates": [
          2.547819,
          49.009747
        ]
      },
      "properties": {
        "id": "SER_1525606",
        "unit_name": "LFPG DE GAULLE",
        "type": "TWR",
        "sequence": 20,
        "latitude": 49.009747,
        "longitude": 2.547819,
        "source": "SIA",
        "airac": "2026-05-14",
        "sia_uid": "1525606"
      }
    },
    {
      "type": "Feature",
      "id": "SER_1525612",
      "geometry": {
        "type": "Point",
        "coordinates": [
          4.716944,
          44.397778
        ]
      },
      "properties": {
        "id": "SER_1525612",
        "unit_name": "LFHD PIERRELATTE",
        "type": "OTHER",
        "sequence": 10,
        "latitude": 44.397778,
        "longitude": 4.716944,
        "source": "SIA",
        "airac": "2026-05-14",
        "sia_uid": "1525612"
      }
    },
    {
      "type": "Feature",
      "id": "SER_1525614",
      "geometry": {
        "type": "Point",
        "coordinates": [
          3.014444,
          48.8375
        ]
      },
      "properties": {
        "id": "SER_1525614",
        "unit_name": "LFPK COULOMMIERS",
        "type": "OTHER",
        "sequence": 10,
        "latitude": 48.8375,
        "longitude": 3.014444,
        "source": "SIA",
        "airac": "2026-05-14",
        "sia_uid": "1525614"
      }
    },
    {
      "type": "Feature",
      "id": "SER_1525618",
      "geometry": {
        "type": "Point",
        "coordinates": [
          -0.286944,
          43.425278
        ]
      },
      "properties": {
        "id": "SER_1525618",
        "unit_name": "LFJV LASCLAVERIES",
        "type": "OTHER",
        "sequence": 10,
        "latitude": 43.425278,
        "longitude": -0.286944,
        "source": "SIA",
        "airac": "2026-05-14",
        "sia_uid": "1525618"
      }
    },
    {
      "type": "Feature",
      "id": "SER_1525620",
      "geometry": {
        "type": "Point",
        "coordinates": [
          4.817058,
          46.828275
        ]
      },
      "properties": {
        "id": "SER_1525620",
        "unit_name": "LFLH CHALON",
        "type": "AFIS",
        "sequence": 10,
        "latitude": 46.828275,
        "longitude": 4.817058,
        "source": "SIA",
        "airac": "2026-05-14",
        "sia_uid": "1525620"
      }
    },
    {
      "type": "Feature",
      "id": "SER_1525622",
      "geometry": {
        "type": "Point",
        "coordinates": [
          6.22605,
          48.692086
        ]
      },
      "properties": {
        "id": "SER_1525622",
        "unit_name": "LFSN NANCY",
        "type": "AFIS",
        "sequence": 10,
        "latitude": 48.692086,
        "longitude": 6.22605,
        "source": "SIA",
        "airac": "2026-05-14",
        "sia_uid": "1525622"
      }
    },
    {
      "type": "Feature",
      "id": "SER_1525624",
      "geometry": {
        "type": "Point",
        "coordinates": [
          8.893889,
          41.660278
        ]
      },
      "properties": {
        "id": "SER_1525624",
        "unit_name": "LFKO PROPRIANO",
        "type": "OTHER",
        "sequence": 10,
        "latitude": 41.660278,
        "longitude": 8.893889,
        "source": "SIA",
        "airac": "2026-05-14",
        "sia_uid": "1525624"
      }
    },
    {
      "type": "Feature",
      "id": "SER_1525626",
      "geometry": {
        "type": "Point",
        "coordinates": [
          4.016622,
          48.321619
        ]
      },
      "properties": {
        "id": "SER_1525626",
        "unit_name": "LFQB TROYES",
        "type": "AFIS",
        "sequence": 10,
        "latitude": 48.321619,
        "longitude": 4.016622,
        "source": "SIA",
        "airac": "2026-05-14",
        "sia_uid": "1525626"
      }
    },
    {
      "type": "Feature",
      "id": "SER_1525628",
      "geometry": {
        "type": "Point",
        "coordinates": [
          1.22,
          49.028611
        ]
      },
      "properties": {
        "id": "SER_1525628",
        "unit_name": "LFOE EVREUX",
        "type": "APP",
        "sequence": 10,
        "latitude": 49.028611,
        "longitude": 1.22,
        "source": "SIA",
        "airac": "2026-05-14",
        "sia_uid": "1525628"
      }
    },
    {
      "type": "Feature",
      "id": "SER_1525630",
      "geometry": {
        "type": "Point",
        "coordinates": [
          2.441492,
          48.969525
        ]
      },
      "properties": {
        "id": "SER_1525630",
        "unit_name": "LFPB LE BOURGET",
        "type": "TWR",
        "sequence": 10,
        "latitude": 48.969525,
        "longitude": 2.441492,
        "source": "SIA",
        "airac": "2026-05-14",
        "sia_uid": "1525630"
      }
    },
    {
      "type": "Feature",
      "id": "SER_1525634",
      "geometry": {
        "type": "Point",
        "coordinates": [
          4.946944,
          47.385278
        ]
      },
      "properties": {
        "id": "SER_1525634",
        "unit_name": "LFGI DAROIS",
        "type": "OTHER",
        "sequence": 10,
        "latitude": 47.385278,
        "longitude": 4.946944,
        "source": "SIA",
        "airac": "2026-05-14",
        "sia_uid": "1525634"
      }
    },
    {
      "type": "Feature",
      "id": "SER_1525638",
      "geometry": {
        "type": "Point",
        "coordinates": [
          -1.113889,
          44.596944
        ]
      },
      "properties": {
        "id": "SER_1525638",
        "unit_name": "LFCH ARCACHON",
        "type": "AFIS",
        "sequence": 10,
        "latitude": 44.596944,
        "longitude": -1.113889,
        "source": "SIA",
        "airac": "2026-05-14",
        "sia_uid": "1525638"
      }
    },
    {
      "type": "Feature",
      "id": "SER_1525640",
      "geometry": {
        "type": "Point",
        "coordinates": [
          4.156581,
          49.208689
        ]
      },
      "properties": {
        "id": "SER_1525640",
        "unit_name": "LFQA PRUNAY",
        "type": "AFIS",
        "sequence": 10,
        "latitude": 49.208689,
        "longitude": 4.156581,
        "source": "SIA",
        "airac": "2026-05-14",
        "sia_uid": "1525640"
      }
    },
    {
      "type": "Feature",
      "id": "SER_1525642",
      "geometry": {
        "type": "Point",
        "coordinates": [
          0.188333,
          46.270556
        ]
      },
      "properties": {
        "id": "SER_1525642",
        "unit_name": "LFDV COUHE",
        "type": "OTHER",
        "sequence": 10,
        "latitude": 46.270556,
        "longitude": 0.188333,
        "source": "SIA",
        "airac": "2026-05-14",
        "sia_uid": "1525642"
      }
    },
    {
      "type": "Feature",
      "id": "SER_1525646",
      "geometry": {
        "type": "Point",
        "coordinates": [
          1.263694,
          43.449156
        ]
      },
      "properties": {
        "id": "SER_1525646",
        "unit_name": "LFBR MURET",
        "type": "TWR",
        "sequence": 20,
        "latitude": 43.449156,
        "longitude": 1.263694,
        "source": "SIA",
        "airac": "2026-05-14",
        "sia_uid": "1525646"
      }
    },
    {
      "type": "Feature",
      "id": "SER_1525650",
      "geometry": {
        "type": "Point",
        "coordinates": [
          4.016622,
          48.321619
        ]
      },
      "properties": {
        "id": "SER_1525650",
        "unit_name": "LFQB TROYES",
        "type": "VDF",
        "sequence": 10,
        "latitude": 48.321619,
        "longitude": 4.016622,
        "source": "SIA",
        "airac": "2026-05-14",
        "sia_uid": "1525650"
      }
    },
    {
      "type": "Feature",
      "id": "SER_1525654",
      "geometry": {
        "type": "Point",
        "coordinates": [
          2.441492,
          48.969525
        ]
      },
      "properties": {
        "id": "SER_1525654",
        "unit_name": "LFPB LE BOURGET",
        "type": "TWR",
        "sequence": 20,
        "latitude": 48.969525,
        "longitude": 2.441492,
        "source": "SIA",
        "airac": "2026-05-14",
        "sia_uid": "1525654"
      }
    },
    {
      "type": "Feature",
      "id": "SER_1525658",
      "geometry": {
        "type": "Point",
        "coordinates": [
          6.106289,
          45.930775
        ]
      },
      "properties": {
        "id": "SER_1525658",
        "unit_name": "LFLP ANNECY",
        "type": "TWR",
        "sequence": 10,
        "latitude": 45.930775,
        "longitude": 6.106289,
        "source": "SIA",
        "airac": "2026-05-14",
        "sia_uid": "1525658"
      }
    },
    {
      "type": "Feature",
      "id": "SER_1525660",
      "geometry": {
        "type": "Point",
        "coordinates": [
          1.263694,
          43.449156
        ]
      },
      "properties": {
        "id": "SER_1525660",
        "unit_name": "LFBR MURET",
        "type": "VDF",
        "sequence": 10,
        "latitude": 43.449156,
        "longitude": 1.263694,
        "source": "SIA",
        "airac": "2026-05-14",
        "sia_uid": "1525660"
      }
    },
    {
      "type": "Feature",
      "id": "SER_1525662",
      "geometry": {
        "type": "Point",
        "coordinates": [
          9.096747,
          41.502108
        ]
      },
      "properties": {
        "id": "SER_1525662",
        "unit_name": "LFKF FIGARI",
        "type": "ATIS",
        "sequence": 10,
        "latitude": 41.502108,
        "longitude": 9.096747,
        "source": "SIA",
        "airac": "2026-05-14",
        "sia_uid": "1525662"
      }
    },
    {
      "type": "Feature",
      "id": "SER_1525734",
      "geometry": {
        "type": "Point",
        "coordinates": [
          3.16245,
          45.785972
        ]
      },
      "properties": {
        "id": "SER_1525734",
        "unit_name": "LFLC CLERMONT",
        "type": "VDF",
        "sequence": 10,
        "latitude": 45.785972,
        "longitude": 3.16245,
        "source": "SIA",
        "airac": "2026-05-14",
        "sia_uid": "1525734"
      }
    },
    {
      "type": "Feature",
      "id": "SER_1525736",
      "geometry": {
        "type": "Point",
        "coordinates": [
          3.496578,
          47.846328
        ]
      },
      "properties": {
        "id": "SER_1525736",
        "unit_name": "LFLA AUXERRE",
        "type": "AFIS",
        "sequence": 10,
        "latitude": 47.846328,
        "longitude": 3.496578,
        "source": "SIA",
        "airac": "2026-05-14",
        "sia_uid": "1525736"
      }
    },
    {
      "type": "Feature",
      "id": "SER_1525738",
      "geometry": {
        "type": "Point",
        "coordinates": [
          -0.034722,
          43.768889
        ]
      },
      "properties": {
        "id": "SER_1525738",
        "unit_name": "LFCN NOGARO",
        "type": "OTHER",
        "sequence": 10,
        "latitude": 43.768889,
        "longitude": -0.034722,
        "source": "SIA",
        "airac": "2026-05-14",
        "sia_uid": "1525738"
      }
    },
    {
      "type": "Feature",
      "id": "SER_1525746",
      "geometry": {
        "type": "Point",
        "coordinates": [
          4.414444,
          43.853056
        ]
      },
      "properties": {
        "id": "SER_1525746",
        "unit_name": "LFME COURBESSAC",
        "type": "OTHER",
        "sequence": 10,
        "latitude": 43.853056,
        "longitude": 4.414444,
        "source": "SIA",
        "airac": "2026-05-14",
        "sia_uid": "1525746"
      }
    },
    {
      "type": "Feature",
      "id": "SER_1525748",
      "geometry": {
        "type": "Point",
        "coordinates": [
          4.206156,
          48.773325
        ]
      },
      "properties": {
        "id": "SER_1525748",
        "unit_name": "LFOK VATRY",
        "type": "VDF",
        "sequence": 10,
        "latitude": 48.773325,
        "longitude": 4.206156,
        "source": "SIA",
        "airac": "2026-05-14",
        "sia_uid": "1525748"
      }
    },
    {
      "type": "Feature",
      "id": "SER_1525750",
      "geometry": {
        "type": "Point",
        "coordinates": [
          -1.195236,
          46.179211
        ]
      },
      "properties": {
        "id": "SER_1525750",
        "unit_name": "LFBH LA ROCHELLE",
        "type": "APP",
        "sequence": 10,
        "latitude": 46.179211,
        "longitude": -1.195236,
        "source": "SIA",
        "airac": "2026-05-14",
        "sia_uid": "1525750"
      }
    },
    {
      "type": "Feature",
      "id": "SER_1525752",
      "geometry": {
        "type": "Point",
        "coordinates": [
          164.837778,
          -21.053333
        ]
      },
      "properties": {
        "id": "SER_1525752",
        "unit_name": "NWWD KONE",
        "type": "AFIS",
        "sequence": 10,
        "latitude": -21.053333,
        "longitude": 164.837778,
        "source": "SIA",
        "airac": "2026-05-14",
        "sia_uid": "1525752"
      }
    },
    {
      "type": "Feature",
      "id": "SER_1525756",
      "geometry": {
        "type": "Point",
        "coordinates": [
          -0.3175,
          45.658333
        ]
      },
      "properties": {
        "id": "SER_1525756",
        "unit_name": "LFBG COGNAC",
        "type": "APP",
        "sequence": 10,
        "latitude": 45.658333,
        "longitude": -0.3175,
        "source": "SIA",
        "airac": "2026-05-14",
        "sia_uid": "1525756"
      }
    },
    {
      "type": "Feature",
      "id": "SER_1525764",
      "geometry": {
        "type": "Point",
        "coordinates": [
          2.311667,
          49.165
        ]
      },
      "properties": {
        "id": "SER_1525764",
        "unit_name": "LFPA PERSAN",
        "type": "OTHER",
        "sequence": 10,
        "latitude": 49.165,
        "longitude": 2.311667,
        "source": "SIA",
        "airac": "2026-05-14",
        "sia_uid": "1525764"
      }
    },
    {
      "type": "Feature",
      "id": "SER_1525768",
      "geometry": {
        "type": "Point",
        "coordinates": [
          -1.195236,
          46.179211
        ]
      },
      "properties": {
        "id": "SER_1525768",
        "unit_name": "LFBH LA ROCHELLE",
        "type": "TWR",
        "sequence": 10,
        "latitude": 46.179211,
        "longitude": -1.195236,
        "source": "SIA",
        "airac": "2026-05-14",
        "sia_uid": "1525768"
      }
    },
    {
      "type": "Feature",
      "id": "SER_1525774",
      "geometry": {
        "type": "Point",
        "coordinates": [
          2.370083,
          47.060786
        ]
      },
      "properties": {
        "id": "SER_1525774",
        "unit_name": "LFLD BOURGES",
        "type": "AFIS",
        "sequence": 10,
        "latitude": 47.060786,
        "longitude": 2.370083,
        "source": "SIA",
        "airac": "2026-05-14",
        "sia_uid": "1525774"
      }
    },
    {
      "type": "Feature",
      "id": "SER_1525666",
      "geometry": {
        "type": "Point",
        "coordinates": [
          5.367222,
          43.505278
        ]
      },
      "properties": {
        "id": "SER_1525666",
        "unit_name": "LFMA AIX",
        "type": "ATIS",
        "sequence": 10,
        "latitude": 43.505278,
        "longitude": 5.367222,
        "source": "SIA",
        "airac": "2026-05-14",
        "sia_uid": "1525666"
      }
    },
    {
      "type": "Feature",
      "id": "SER_1525668",
      "geometry": {
        "type": "Point",
        "coordinates": [
          5.05,
          48.091667
        ]
      },
      "properties": {
        "id": "SER_1525668",
        "unit_name": "LFJA SEMOUTIERS",
        "type": "OTHER",
        "sequence": 10,
        "latitude": 48.091667,
        "longitude": 5.05,
        "source": "SIA",
        "airac": "2026-05-14",
        "sia_uid": "1525668"
      }
    },
    {
      "type": "Feature",
      "id": "SER_1525672",
      "geometry": {
        "type": "Point",
        "coordinates": [
          2.111178,
          48.749756
        ]
      },
      "properties": {
        "id": "SER_1525672",
        "unit_name": "LFPN TOUSSUS",
        "type": "TWR",
        "sequence": 10,
        "latitude": 48.749756,
        "longitude": 2.111178,
        "source": "SIA",
        "airac": "2026-05-14",
        "sia_uid": "1525672"
      }
    },
    {
      "type": "Feature",
      "id": "SER_1525674",
      "geometry": {
        "type": "Point",
        "coordinates": [
          5.880122,
          45.639272
        ]
      },
      "properties": {
        "id": "SER_1525674",
        "unit_name": "LFLB CHAMBERY",
        "type": "TWR",
        "sequence": 10,
        "latitude": 45.639272,
        "longitude": 5.880122,
        "source": "SIA",
        "airac": "2026-05-14",
        "sia_uid": "1525674"
      }
    },
    {
      "type": "Feature",
      "id": "SER_1525676",
      "geometry": {
        "type": "Point",
        "coordinates": [
          1.263694,
          43.449156
        ]
      },
      "properties": {
        "id": "SER_1525676",
        "unit_name": "LFBR MURET",
        "type": "TWR",
        "sequence": 10,
        "latitude": 43.449156,
        "longitude": 1.263694,
        "source": "SIA",
        "airac": "2026-05-14",
        "sia_uid": "1525676"
      }
    },
    {
      "type": "Feature",
      "id": "SER_1525678",
      "geometry": {
        "type": "Point",
        "coordinates": [
          2.606111,
          48.896667
        ]
      },
      "properties": {
        "id": "SER_1525678",
        "unit_name": "LFPH CHELLES",
        "type": "OTHER",
        "sequence": 10,
        "latitude": 48.896667,
        "longitude": 2.606111,
        "source": "SIA",
        "airac": "2026-05-14",
        "sia_uid": "1525678"
      }
    },
    {
      "type": "Feature",
      "id": "SER_1525682",
      "geometry": {
        "type": "Point",
        "coordinates": [
          5.880122,
          45.639272
        ]
      },
      "properties": {
        "id": "SER_1525682",
        "unit_name": "LFLB CHAMBERY",
        "type": "APP",
        "sequence": 10,
        "latitude": 45.639272,
        "longitude": 5.880122,
        "source": "SIA",
        "airac": "2026-05-14",
        "sia_uid": "1525682"
      }
    },
    {
      "type": "Feature",
      "id": "SER_1525684",
      "geometry": {
        "type": "Point",
        "coordinates": [
          2.111178,
          48.749756
        ]
      },
      "properties": {
        "id": "SER_1525684",
        "unit_name": "LFPN TOUSSUS",
        "type": "VDF",
        "sequence": 10,
        "latitude": 48.749756,
        "longitude": 2.111178,
        "source": "SIA",
        "airac": "2026-05-14",
        "sia_uid": "1525684"
      }
    },
    {
      "type": "Feature",
      "id": "SER_1525686",
      "geometry": {
        "type": "Point",
        "coordinates": [
          2.416719,
          44.897583
        ]
      },
      "properties": {
        "id": "SER_1525686",
        "unit_name": "LFLW AURILLAC",
        "type": "AFIS",
        "sequence": 10,
        "latitude": 44.897583,
        "longitude": 2.416719,
        "source": "SIA",
        "airac": "2026-05-14",
        "sia_uid": "1525686"
      }
    },
    {
      "type": "Feature",
      "id": "SER_1525690",
      "geometry": {
        "type": "Point",
        "coordinates": [
          2.111178,
          48.749756
        ]
      },
      "properties": {
        "id": "SER_1525690",
        "unit_name": "LFPN TOUSSUS",
        "type": "TWR",
        "sequence": 20,
        "latitude": 48.749756,
        "longitude": 2.111178,
        "source": "SIA",
        "airac": "2026-05-14",
        "sia_uid": "1525690"
      }
    },
    {
      "type": "Feature",
      "id": "SER_1525692",
      "geometry": {
        "type": "Point",
        "coordinates": [
          0.550556,
          46.780278
        ]
      },
      "properties": {
        "id": "SER_1525692",
        "unit_name": "LFCA CHATELLERAULT",
        "type": "OTHER",
        "sequence": 10,
        "latitude": 46.780278,
        "longitude": 0.550556,
        "source": "SIA",
        "airac": "2026-05-14",
        "sia_uid": "1525692"
      }
    },
    {
      "type": "Feature",
      "id": "SER_1525694",
      "geometry": {
        "type": "Point",
        "coordinates": [
          0.600047,
          43.686839
        ]
      },
      "properties": {
        "id": "SER_1525694",
        "unit_name": "LFDH AUCH",
        "type": "AFIS",
        "sequence": 10,
        "latitude": 43.686839,
        "longitude": 0.600047,
        "source": "SIA",
        "airac": "2026-05-14",
        "sia_uid": "1525694"
      }
    },
    {
      "type": "Feature",
      "id": "SER_1525696",
      "geometry": {
        "type": "Point",
        "coordinates": [
          3.086822,
          50.563425
        ]
      },
      "properties": {
        "id": "SER_1525696",
        "unit_name": "LFQQ LILLE",
        "type": "FIS",
        "sequence": 10,
        "latitude": 50.563425,
        "longitude": 3.086822,
        "source": "SIA",
        "airac": "2026-05-14",
        "sia_uid": "1525696"
      }
    },
    {
      "type": "Feature",
      "id": "SER_1525698",
      "geometry": {
        "type": "Point",
        "coordinates": [
          6.246531,
          48.978281
        ]
      },
      "properties": {
        "id": "SER_1525698",
        "unit_name": "LFJL LORRAINE",
        "type": "ATIS",
        "sequence": 10,
        "latitude": 48.978281,
        "longitude": 6.246531,
        "source": "SIA",
        "airac": "2026-05-14",
        "sia_uid": "1525698"
      }
    },
    {
      "type": "Feature",
      "id": "SER_1525700",
      "geometry": {
        "type": "Point",
        "coordinates": [
          2.547819,
          49.009747
        ]
      },
      "properties": {
        "id": "SER_1525700",
        "unit_name": "LFPG DE GAULLE",
        "type": "ATIS",
        "sequence": 10,
        "latitude": 49.009747,
        "longitude": 2.547819,
        "source": "SIA",
        "airac": "2026-05-14",
        "sia_uid": "1525700"
      }
    },
    {
      "type": "Feature",
      "id": "SER_1525702",
      "geometry": {
        "type": "Point",
        "coordinates": [
          0.435556,
          42.796667
        ]
      },
      "properties": {
        "id": "SER_1525702",
        "unit_name": "LFIP PEYRESOURDE",
        "type": "OTHER",
        "sequence": 10,
        "latitude": 42.796667,
        "longitude": 0.435556,
        "source": "SIA",
        "airac": "2026-05-14",
        "sia_uid": "1525702"
      }
    },
    {
      "type": "Feature",
      "id": "SER_1525706",
      "geometry": {
        "type": "Point",
        "coordinates": [
          166.216111,
          -22.016389
        ]
      },
      "properties": {
        "id": "SER_1525706",
        "unit_name": "NWWW TONTOUTA",
        "type": "TWR",
        "sequence": 20,
        "latitude": -22.016389,
        "longitude": 166.216111,
        "source": "SIA",
        "airac": "2026-05-14",
        "sia_uid": "1525706"
      }
    },
    {
      "type": "Feature",
      "id": "SER_1525710",
      "geometry": {
        "type": "Point",
        "coordinates": [
          4.634931,
          45.919983
        ]
      },
      "properties": {
        "id": "SER_1525710",
        "unit_name": "LFHV VILLEFRANCHE",
        "type": "OTHER",
        "sequence": 10,
        "latitude": 45.919983,
        "longitude": 4.634931,
        "source": "SIA",
        "airac": "2026-05-14",
        "sia_uid": "1525710"
      }
    },
    {
      "type": "Feature",
      "id": "SER_1525712",
      "geometry": {
        "type": "Point",
        "coordinates": [
          4.902028,
          43.906581
        ]
      },
      "properties": {
        "id": "SER_1525712",
        "unit_name": "LFMV AVIGNON PROVENCE",
        "type": "ATIS",
        "sequence": 10,
        "latitude": 43.906581,
        "longitude": 4.902028,
        "source": "SIA",
        "airac": "2026-05-14",
        "sia_uid": "1525712"
      }
    },
    {
      "type": "Feature",
      "id": "SER_1525716",
      "geometry": {
        "type": "Point",
        "coordinates": [
          3.086822,
          50.563425
        ]
      },
      "properties": {
        "id": "SER_1525716",
        "unit_name": "LFQQ LILLE",
        "type": "ATIS",
        "sequence": 10,
        "latitude": 50.563425,
        "longitude": 3.086822,
        "source": "SIA",
        "airac": "2026-05-14",
        "sia_uid": "1525716"
      }
    },
    {
      "type": "Feature",
      "id": "SER_1525720",
      "geometry": {
        "type": "Point",
        "coordinates": [
          -2.346944,
          47.288333
        ]
      },
      "properties": {
        "id": "SER_1525720",
        "unit_name": "LFRE LA BAULE",
        "type": "AFIS",
        "sequence": 10,
        "latitude": 47.288333,
        "longitude": -2.346944,
        "source": "SIA",
        "airac": "2026-05-14",
        "sia_uid": "1525720"
      }
    },
    {
      "type": "Feature",
      "id": "SER_1525722",
      "geometry": {
        "type": "Point",
        "coordinates": [
          3.086822,
          50.563425
        ]
      },
      "properties": {
        "id": "SER_1525722",
        "unit_name": "LFQQ LILLE",
        "type": "APP",
        "sequence": 10,
        "latitude": 50.563425,
        "longitude": 3.086822,
        "source": "SIA",
        "airac": "2026-05-14",
        "sia_uid": "1525722"
      }
    },
    {
      "type": "Feature",
      "id": "SER_1525724",
      "geometry": {
        "type": "Point",
        "coordinates": [
          -2.923333,
          48.056944
        ]
      },
      "properties": {
        "id": "SER_1525724",
        "unit_name": "LFED PONTIVY",
        "type": "OTHER",
        "sequence": 10,
        "latitude": 48.056944,
        "longitude": -2.923333,
        "source": "SIA",
        "airac": "2026-05-14",
        "sia_uid": "1525724"
      }
    },
    {
      "type": "Feature",
      "id": "SER_1525728",
      "geometry": {
        "type": "Point",
        "coordinates": [
          6.246531,
          48.978281
        ]
      },
      "properties": {
        "id": "SER_1525728",
        "unit_name": "LFJL LORRAINE",
        "type": "APP",
        "sequence": 10,
        "latitude": 48.978281,
        "longitude": 6.246531,
        "source": "SIA",
        "airac": "2026-05-14",
        "sia_uid": "1525728"
      }
    },
    {
      "type": "Feature",
      "id": "SER_1525730",
      "geometry": {
        "type": "Point",
        "coordinates": [
          6.329167,
          46.908333
        ]
      },
      "properties": {
        "id": "SER_1525730",
        "unit_name": "LFSP PONTARLIER",
        "type": "OTHER",
        "sequence": 10,
        "latitude": 46.908333,
        "longitude": 6.329167,
        "source": "SIA",
        "airac": "2026-05-14",
        "sia_uid": "1525730"
      }
    },
    {
      "type": "Feature",
      "id": "SER_1525732",
      "geometry": {
        "type": "Point",
        "coordinates": [
          -1.381758,
          46.702383
        ]
      },
      "properties": {
        "id": "SER_1525732",
        "unit_name": "LFRI LA ROCHE",
        "type": "AFIS",
        "sequence": 10,
        "latitude": 46.702383,
        "longitude": -1.381758,
        "source": "SIA",
        "airac": "2026-05-14",
        "sia_uid": "1525732"
      }
    },
    {
      "type": "Feature",
      "id": "SER_1525884",
      "geometry": {
        "type": "Point",
        "coordinates": [
          7.529222,
          47.589878
        ]
      },
      "properties": {
        "id": "SER_1525884",
        "unit_name": "LFSB BALE",
        "type": "ATIS",
        "sequence": 10,
        "latitude": 47.589878,
        "longitude": 7.529222,
        "source": "SIA",
        "airac": "2026-05-14",
        "sia_uid": "1525884"
      }
    },
    {
      "type": "Feature",
      "id": "SER_1525778",
      "geometry": {
        "type": "Point",
        "coordinates": [
          4.206156,
          48.773325
        ]
      },
      "properties": {
        "id": "SER_1525778",
        "unit_name": "LFOK VATRY",
        "type": "TWR",
        "sequence": 10,
        "latitude": 48.773325,
        "longitude": 4.206156,
        "source": "SIA",
        "airac": "2026-05-14",
        "sia_uid": "1525778"
      }
    },
    {
      "type": "Feature",
      "id": "SER_1525780",
      "geometry": {
        "type": "Point",
        "coordinates": [
          3.0296,
          49.868861
        ]
      },
      "properties": {
        "id": "SER_1525780",
        "unit_name": "LFAG PERONNE",
        "type": "OTHER",
        "sequence": 10,
        "latitude": 49.868861,
        "longitude": 3.0296,
        "source": "SIA",
        "airac": "2026-05-14",
        "sia_uid": "1525780"
      }
    },
    {
      "type": "Feature",
      "id": "SER_1525784",
      "geometry": {
        "type": "Point",
        "coordinates": [
          6.206389,
          48.723611
        ]
      },
      "properties": {
        "id": "SER_1525784",
        "unit_name": "LFEZ MALZEVILLE",
        "type": "OTHER",
        "sequence": 10,
        "latitude": 48.723611,
        "longitude": 6.206389,
        "source": "SIA",
        "airac": "2026-05-14",
        "sia_uid": "1525784"
      }
    },
    {
      "type": "Feature",
      "id": "SER_1525790",
      "geometry": {
        "type": "Point",
        "coordinates": [
          -61.525833,
          16.264167
        ]
      },
      "properties": {
        "id": "SER_1525790",
        "unit_name": "TFFR RAIZET",
        "type": "ATIS",
        "sequence": 10,
        "latitude": 16.264167,
        "longitude": -61.525833,
        "source": "SIA",
        "airac": "2026-05-14",
        "sia_uid": "1525790"
      }
    },
    {
      "type": "Feature",
      "id": "SER_1525796",
      "geometry": {
        "type": "Point",
        "coordinates": [
          -56.174167,
          46.763056
        ]
      },
      "properties": {
        "id": "SER_1525796",
        "unit_name": "LFVP SAINT PIERRE",
        "type": "APP",
        "sequence": 10,
        "latitude": 46.763056,
        "longitude": -56.174167,
        "source": "SIA",
        "airac": "2026-05-14",
        "sia_uid": "1525796"
      }
    },
    {
      "type": "Feature",
      "id": "SER_1525800",
      "geometry": {
        "type": "Point",
        "coordinates": [
          -4.167875,
          47.974947
        ]
      },
      "properties": {
        "id": "SER_1525800",
        "unit_name": "LFRQ QUIMPER",
        "type": "TWR",
        "sequence": 10,
        "latitude": 47.974947,
        "longitude": -4.167875,
        "source": "SIA",
        "airac": "2026-05-14",
        "sia_uid": "1525800"
      }
    },
    {
      "type": "Feature",
      "id": "SER_1525802",
      "geometry": {
        "type": "Point",
        "coordinates": [
          -178.066389,
          -14.311667
        ]
      },
      "properties": {
        "id": "SER_1525802",
        "unit_name": "NLWF FUTUNA",
        "type": "AFIS",
        "sequence": 10,
        "latitude": -14.311667,
        "longitude": -178.066389,
        "source": "SIA",
        "airac": "2026-05-14",
        "sia_uid": "1525802"
      }
    },
    {
      "type": "Feature",
      "id": "SER_1525806",
      "geometry": {
        "type": "Point",
        "coordinates": [
          -176.199167,
          -13.238333
        ]
      },
      "properties": {
        "id": "SER_1525806",
        "unit_name": "NLWW WALLIS",
        "type": "AFIS",
        "sequence": 10,
        "latitude": -13.238333,
        "longitude": -176.199167,
        "source": "SIA",
        "airac": "2026-05-14",
        "sia_uid": "1525806"
      }
    },
    {
      "type": "Feature",
      "id": "SER_1525808",
      "geometry": {
        "type": "Point",
        "coordinates": [
          3.008056,
          48.596944
        ]
      },
      "properties": {
        "id": "SER_1525808",
        "unit_name": "LFAI NANGIS",
        "type": "OTHER",
        "sequence": 10,
        "latitude": 48.596944,
        "longitude": 3.008056,
        "source": "SIA",
        "airac": "2026-05-14",
        "sia_uid": "1525808"
      }
    },
    {
      "type": "Feature",
      "id": "SER_1525810",
      "geometry": {
        "type": "Point",
        "coordinates": [
          -56.174167,
          46.763056
        ]
      },
      "properties": {
        "id": "SER_1525810",
        "unit_name": "LFVP SAINT PIERRE",
        "type": "TWR",
        "sequence": 10,
        "latitude": 46.763056,
        "longitude": -56.174167,
        "source": "SIA",
        "airac": "2026-05-14",
        "sia_uid": "1525810"
      }
    },
    {
      "type": "Feature",
      "id": "SER_1525812",
      "geometry": {
        "type": "Point",
        "coordinates": [
          1.180306,
          45.860764
        ]
      },
      "properties": {
        "id": "SER_1525812",
        "unit_name": "LFBL LIMOGES",
        "type": "APP",
        "sequence": 10,
        "latitude": 45.860764,
        "longitude": 1.180306,
        "source": "SIA",
        "airac": "2026-05-14",
        "sia_uid": "1525812"
      }
    },
    {
      "type": "Feature",
      "id": "SER_1525814",
      "geometry": {
        "type": "Point",
        "coordinates": [
          2.638889,
          47.056944
        ]
      },
      "properties": {
        "id": "SER_1525814",
        "unit_name": "LFOA AVORD",
        "type": "APP",
        "sequence": 10,
        "latitude": 47.056944,
        "longitude": 2.638889,
        "source": "SIA",
        "airac": "2026-05-14",
        "sia_uid": "1525814"
      }
    },
    {
      "type": "Feature",
      "id": "SER_1525816",
      "geometry": {
        "type": "Point",
        "coordinates": [
          2.191389,
          48.774172
        ]
      },
      "properties": {
        "id": "SER_1525816",
        "unit_name": "LFPV VILLA",
        "type": "TWR",
        "sequence": 20,
        "latitude": 48.774172,
        "longitude": 2.191389,
        "source": "SIA",
        "airac": "2026-05-14",
        "sia_uid": "1525816"
      }
    },
    {
      "type": "Feature",
      "id": "SER_1525820",
      "geometry": {
        "type": "Point",
        "coordinates": [
          1.376944,
          44.026667
        ]
      },
      "properties": {
        "id": "SER_1525820",
        "unit_name": "LFDB MONTAUBAN",
        "type": "OTHER",
        "sequence": 10,
        "latitude": 44.026667,
        "longitude": 1.376944,
        "source": "SIA",
        "airac": "2026-05-14",
        "sia_uid": "1525820"
      }
    },
    {
      "type": "Feature",
      "id": "SER_1525824",
      "geometry": {
        "type": "Point",
        "coordinates": [
          2.640094,
          50.6166
        ]
      },
      "properties": {
        "id": "SER_1525824",
        "unit_name": "LFQT MERVILLE",
        "type": "TWR",
        "sequence": 10,
        "latitude": 50.6166,
        "longitude": 2.640094,
        "source": "SIA",
        "airac": "2026-05-14",
        "sia_uid": "1525824"
      }
    },
    {
      "type": "Feature",
      "id": "SER_1525826",
      "geometry": {
        "type": "Point",
        "coordinates": [
          -61.525833,
          16.264167
        ]
      },
      "properties": {
        "id": "SER_1525826",
        "unit_name": "TFFR RAIZET",
        "type": "APP",
        "sequence": 10,
        "latitude": 16.264167,
        "longitude": -61.525833,
        "source": "SIA",
        "airac": "2026-05-14",
        "sia_uid": "1525826"
      }
    },
    {
      "type": "Feature",
      "id": "SER_1525828",
      "geometry": {
        "type": "Point",
        "coordinates": [
          1.989167,
          43.406389
        ]
      },
      "properties": {
        "id": "SER_1525828",
        "unit_name": "LFMG MONTAGNE",
        "type": "OTHER",
        "sequence": 10,
        "latitude": 43.406389,
        "longitude": 1.989167,
        "source": "SIA",
        "airac": "2026-05-14",
        "sia_uid": "1525828"
      }
    },
    {
      "type": "Feature",
      "id": "SER_1525830",
      "geometry": {
        "type": "Point",
        "coordinates": [
          3.527633,
          44.504081
        ]
      },
      "properties": {
        "id": "SER_1525830",
        "unit_name": "LFNB MENDE",
        "type": "AFIS",
        "sequence": 10,
        "latitude": 44.504081,
        "longitude": 3.527633,
        "source": "SIA",
        "airac": "2026-05-14",
        "sia_uid": "1525830"
      }
    },
    {
      "type": "Feature",
      "id": "SER_1525840",
      "geometry": {
        "type": "Point",
        "coordinates": [
          3.086822,
          50.563425
        ]
      },
      "properties": {
        "id": "SER_1525840",
        "unit_name": "LFQQ LILLE",
        "type": "TWR",
        "sequence": 10,
        "latitude": 50.563425,
        "longitude": 3.086822,
        "source": "SIA",
        "airac": "2026-05-14",
        "sia_uid": "1525840"
      }
    },
    {
      "type": "Feature",
      "id": "SER_1525842",
      "geometry": {
        "type": "Point",
        "coordinates": [
          -61.525833,
          16.264167
        ]
      },
      "properties": {
        "id": "SER_1525842",
        "unit_name": "TFFR RAIZET",
        "type": "TWR",
        "sequence": 10,
        "latitude": 16.264167,
        "longitude": -61.525833,
        "source": "SIA",
        "airac": "2026-05-14",
        "sia_uid": "1525842"
      }
    },
    {
      "type": "Feature",
      "id": "SER_1525844",
      "geometry": {
        "type": "Point",
        "coordinates": [
          3.086822,
          50.563425
        ]
      },
      "properties": {
        "id": "SER_1525844",
        "unit_name": "LFQQ LILLE",
        "type": "TWR",
        "sequence": 20,
        "latitude": 50.563425,
        "longitude": 3.086822,
        "source": "SIA",
        "airac": "2026-05-14",
        "sia_uid": "1525844"
      }
    },
    {
      "type": "Feature",
      "id": "SER_1525846",
      "geometry": {
        "type": "Point",
        "coordinates": [
          4.070161,
          43.610172
        ]
      },
      "properties": {
        "id": "SER_1525846",
        "unit_name": "LFNG CANDILLARGUES",
        "type": "OTHER",
        "sequence": 10,
        "latitude": 43.610172,
        "longitude": 4.070161,
        "source": "SIA",
        "airac": "2026-05-14",
        "sia_uid": "1525846"
      }
    },
    {
      "type": "Feature",
      "id": "SER_1525850",
      "geometry": {
        "type": "Point",
        "coordinates": [
          166.216111,
          -22.016389
        ]
      },
      "properties": {
        "id": "SER_1525850",
        "unit_name": "NWWW TONTOUTA",
        "type": "APP",
        "sequence": 10,
        "latitude": -22.016389,
        "longitude": 166.216111,
        "source": "SIA",
        "airac": "2026-05-14",
        "sia_uid": "1525850"
      }
    },
    {
      "type": "Feature",
      "id": "SER_1525852",
      "geometry": {
        "type": "Point",
        "coordinates": [
          166.216111,
          -22.016389
        ]
      },
      "properties": {
        "id": "SER_1525852",
        "unit_name": "NWWW TONTOUTA",
        "type": "TWR",
        "sequence": 10,
        "latitude": -22.016389,
        "longitude": 166.216111,
        "source": "SIA",
        "airac": "2026-05-14",
        "sia_uid": "1525852"
      }
    },
    {
      "type": "Feature",
      "id": "SER_1525854",
      "geometry": {
        "type": "Point",
        "coordinates": [
          2.547819,
          49.009747
        ]
      },
      "properties": {
        "id": "SER_1525854",
        "unit_name": "LFPG DE GAULLE",
        "type": "APP",
        "sequence": 10,
        "latitude": 49.009747,
        "longitude": 2.547819,
        "source": "SIA",
        "airac": "2026-05-14",
        "sia_uid": "1525854"
      }
    },
    {
      "type": "Feature",
      "id": "SER_1525856",
      "geometry": {
        "type": "Point",
        "coordinates": [
          -61.525833,
          16.264167
        ]
      },
      "properties": {
        "id": "SER_1525856",
        "unit_name": "TFFR RAIZET",
        "type": "VDF",
        "sequence": 10,
        "latitude": 16.264167,
        "longitude": -61.525833,
        "source": "SIA",
        "airac": "2026-05-14",
        "sia_uid": "1525856"
      }
    },
    {
      "type": "Feature",
      "id": "SER_1525860",
      "geometry": {
        "type": "Point",
        "coordinates": [
          3.086822,
          50.563425
        ]
      },
      "properties": {
        "id": "SER_1525860",
        "unit_name": "LFQQ LILLE",
        "type": "VDF",
        "sequence": 10,
        "latitude": 50.563425,
        "longitude": 3.086822,
        "source": "SIA",
        "airac": "2026-05-14",
        "sia_uid": "1525860"
      }
    },
    {
      "type": "Feature",
      "id": "SER_1525862",
      "geometry": {
        "type": "Point",
        "coordinates": [
          2.640094,
          50.6166
        ]
      },
      "properties": {
        "id": "SER_1525862",
        "unit_name": "LFQT MERVILLE",
        "type": "VDF",
        "sequence": 10,
        "latitude": 50.6166,
        "longitude": 2.640094,
        "source": "SIA",
        "airac": "2026-05-14",
        "sia_uid": "1525862"
      }
    },
    {
      "type": "Feature",
      "id": "SER_1525864",
      "geometry": {
        "type": "Point",
        "coordinates": [
          2.191389,
          48.774172
        ]
      },
      "properties": {
        "id": "SER_1525864",
        "unit_name": "LFPV VILLA",
        "type": "APP",
        "sequence": 10,
        "latitude": 48.774172,
        "longitude": 2.191389,
        "source": "SIA",
        "airac": "2026-05-14",
        "sia_uid": "1525864"
      }
    },
    {
      "type": "Feature",
      "id": "SER_1525866",
      "geometry": {
        "type": "Point",
        "coordinates": [
          -3.101667,
          47.481389
        ]
      },